City,Country,Date/Time,Latitude,Longitude,Maximum Temp,Minimum Temp,Cloudiness,Humidity,Wind Speed
Fortuna,ES,2018-10-23 15:00:00,38.18,-1.13,71.6,69.8,20,77,4.7
San Quintin,PH,2018-10-23 15:00:00,17.54,120.52,77.0,77.0,20,83,2.24
Castro,CL,2018-10-23 15:19:13,-42.48,-73.76,60.67,60.67,0,69,3.15
Ushuaia,AR,2018-10-23 14:00:00,-54.81,-68.31,44.6,44.6,40,73,25.28
Iqaluit,CA,2018-10-23 15:00:00,63.75,-68.52,19.4,19.4,75,73,4.7
Tuktoyaktuk,CA,2018-10-23 15:00:00,69.44,-133.03,17.6,17.6,90,92,2.24
Dawson Creek,CA,2018-10-23 15:00:00,55.76,-120.23,28.4,23.0,1,85,2.59
Port Hardy,CA,2018-10-23 15:00:00,50.7,-127.42,44.6,44.6,75,81,6.93
Grand Gaube,MU,2018-10-23 14:00:00,-20.01,57.66,75.2,75.2,75,57,12.75
Albany,US,2018-10-23 14:54:00,42.65,-73.75,48.2,44.6,75,70,4.7
Tilichiki,RU,2018-10-23 15:19:19,60.47,166.1,9.1,9.1,0,84,2.59
Alvorada,BR,2018-10-23 14:00:00,-30.0,-51.08,75.2,73.4,75,60,11.41
Saskylakh,RU,2018-10-23 15:19:20,71.97,114.09,11.89,11.89,68,81,3.94
Dingle,PH,2018-10-23 15:19:21,11.0,122.67,76.01,76.01,48,91,7.4
Altena,DE,2018-10-23 14:50:00,51.3,7.67,57.2,50.0,90,100,14.99
Norman Wells,CA,2018-10-23 15:00:00,65.28,-126.83,26.6,26.6,90,100,3.36
Synya,RU,2018-10-23 15:15:17,65.37,58.04,34.16,34.16,92,95,7.96
Longyearbyen,NO,2018-10-23 14:50:00,78.22,15.63,33.8,33.8,75,64,27.51
Bredasdorp,ZA,2018-10-23 14:00:00,-34.53,20.04,89.6,89.6,0,27,11.41
Hilo,US,2018-10-23 14:56:00,19.71,-155.08,69.8,48.2,75,83,5.82
New Norfolk,AU,2018-10-23 15:00:00,-42.78,147.06,44.6,44.6,24,70,9.17
Busselton,AU,2018-10-23 15:19:38,-33.64,115.35,58.42,58.42,80,100,9.19
Meadow Lake,CA,2018-10-23 15:00:00,54.13,-108.44,24.8,24.8,5,79,6.73
Vaini,IN,2018-10-23 15:19:39,15.34,74.49,68.5,68.5,20,95,2.15
Cape Town,ZA,2018-10-23 14:00:00,-33.93,18.42,89.6,89.6,20,31,16.11
Rikitea,PF,2018-10-23 15:19:40,-23.12,-134.97,70.3,70.3,100,100,5.73
Oistins,BB,2018-10-23 14:00:00,13.07,-59.53,86.0,86.0,40,70,13.87
Punta Arenas,CL,2018-10-23 14:00:00,-53.16,-70.91,44.6,44.6,40,56,9.17
Araouane,ML,2018-10-23 15:19:41,18.9,-3.53,102.52,102.52,64,18,15.23
Usagara,TZ,2018-10-23 14:00:00,-2.68,32.99,82.4,82.4,40,39,20.8
Port Alfred,ZA,2018-10-23 15:19:43,-33.59,26.89,78.67,78.67,0,55,10.09
Kapaa,US,2018-10-23 14:56:00,22.08,-159.32,77.0,73.4,40,78,12.75
Kilifi,KE,2018-10-23 15:00:00,-3.63,39.85,78.8,78.8,20,69,10.29
Huarmey,PE,2018-10-23 15:19:44,-10.07,-78.15,72.82,72.82,8,57,3.71
Mar del Plata,AR,2018-10-23 15:19:44,-46.43,-67.52,59.18,59.18,0,61,5.39
Tessalit,ML,2018-10-23 15:19:44,20.2,1.01,100.31,100.31,0,16,12.44
Carinhanha,BR,2018-10-23 15:19:45,-14.3,-43.77,87.53,87.53,0,56,9.64
Sanmenxia,CN,2018-10-23 15:19:45,34.77,111.19,44.33,44.33,20,82,2.93
Pineville,US,2018-10-23 14:35:00,31.32,-92.43,57.2,53.6,90,87,4.7
Ahipara,NZ,2018-10-23 15:19:46,-35.17,173.16,52.88,52.88,20,100,3.6
San Cristobal,EC,2018-10-23 14:00:00,-0.39,-78.55,57.2,57.2,0,54,1.12
Jamestown,AU,2018-10-23 15:19:48,-33.21,138.6,46.18,46.18,0,64,8.41
Chuy,UY,2018-10-23 15:19:48,-33.69,-53.46,65.44,65.44,0,82,16.46
Curup,ID,2018-10-23 15:19:49,-3.47,102.53,70.88,70.88,88,96,1.25
Avarua,CK,2018-10-23 15:19:49,-21.21,-159.78,72.68,72.68,92,100,19.26
Cockburn Town,TC,2018-10-23 15:15:18,21.46,-71.14,82.81,82.81,92,97,10.09
Portage,US,2018-10-23 14:45:00,41.58,-87.18,51.8,44.6,40,61,11.41
Bud,NO,2018-10-23 14:50:00,62.91,6.91,41.0,39.2,75,75,11.41
Terney,RU,2018-10-23 15:19:51,45.05,136.61,52.84,52.84,92,100,14.79
Tuatapere,NZ,2018-10-23 15:19:52,-46.13,167.69,58.28,58.28,92,84,10.65
Vardo,US,2018-10-23 14:55:00,39.62,-77.74,62.6,51.8,1,44,9.17
Esso,RU,2018-10-23 15:19:53,55.93,158.7,17.33,17.33,68,75,2.37
Inhambane,MZ,2018-10-23 14:00:00,-23.87,35.38,75.2,75.2,40,53,14.99
Torbay,CA,2018-10-23 15:00:00,47.66,-52.73,44.6,44.6,75,65,12.75
Kampot,KH,2018-10-23 15:19:54,10.62,104.18,76.1,76.1,68,93,1.7
Mataura,NZ,2018-10-23 15:19:54,-46.19,168.86,58.42,58.42,80,90,9.08
Kodiak,US,2018-10-23 13:53:00,39.95,-94.76,48.2,48.2,1,61,3.36
Qaanaaq,GL,2018-10-23 15:19:56,77.48,-69.36,0.01,0.01,0,100,14.79
Novikovo,UA,2018-10-23 15:19:56,45.05,34.56,56.08,56.08,68,90,2.82
Monticello,US,2018-10-23 14:50:00,45.31,-93.79,39.2,35.6,1,69,3.36
Quesnel,CA,2018-10-23 15:00:00,52.98,-122.49,23.0,23.0,75,92,3.36
Nanortalik,GL,2018-10-23 15:19:58,60.14,-45.24,34.12,34.12,92,100,1.81
Thompson,CA,2018-10-23 15:00:00,55.74,-97.86,21.2,21.2,75,92,2.93
Saint-Philippe,CA,2018-10-23 15:00:00,45.36,-73.48,48.2,41.0,20,75,9.17
Bethel,US,2018-10-23 14:58:00,60.79,-161.76,30.2,30.2,90,100,8.05
Mahebourg,MU,2018-10-23 14:00:00,-20.41,57.7,75.2,75.2,75,57,12.75
Lebu,ET,2018-10-23 15:00:00,8.96,38.73,64.4,64.4,40,48,11.41
Port Blair,IN,2018-10-23 15:20:02,11.67,92.75,82.85,82.85,80,100,1.14
Chicama,PE,2018-10-23 14:00:00,-7.84,-79.15,68.0,68.0,20,72,11.41
Saldanha,PT,2018-10-23 15:20:03,41.42,-6.55,69.08,69.08,0,45,5.5
Wageningen,NL,2018-10-23 14:55:00,51.98,5.66,57.2,57.2,90,71,11.41
Astoria,US,2018-10-23 14:55:00,46.19,-123.83,48.2,48.2,90,93,3.36
Kibaha,TZ,2018-10-23 15:00:00,-6.79,38.99,84.2,80.6,20,61,20.8
Sola,NO,2018-10-23 14:50:00,58.89,5.65,48.2,48.2,75,76,24.16
Abnub,EG,2018-10-23 14:00:00,27.27,31.15,93.2,93.2,0,28,11.41
San Patricio,PY,2018-10-23 15:20:09,-26.98,-56.83,74.62,74.62,92,82,4.38
Cabo San Lucas,MX,2018-10-23 15:16:13,22.89,-109.91,77.05,77.05,100,100,15.79
Rockport,US,2018-10-23 14:56:00,28.02,-97.05,57.2,53.6,90,93,12.75
Richards Bay,ZA,2018-10-23 15:20:11,-28.77,32.06,76.46,76.46,0,49,10.98
Cidreira,BR,2018-10-23 15:20:11,-30.17,-50.22,69.49,69.49,88,91,6.73
Bilma,NE,2018-10-23 15:20:12,18.69,12.92,99.37,99.37,0,13,4.61
Sooke,CA,2018-10-23 15:00:00,48.37,-123.73,46.4,42.8,90,100,2.59
Carnarvon,ZA,2018-10-23 15:20:13,-30.97,22.13,76.87,76.87,0,13,16.02
Hermanus,ZA,2018-10-23 15:20:14,-34.42,19.24,90.05,90.05,64,27,4.94
Beibei,CN,2018-10-23 14:00:00,29.83,106.43,60.8,60.8,90,93,4.47
Bluff,AU,2018-10-23 15:20:15,-23.58,149.07,71.38,71.38,0,70,9.19
Upernavik,GL,2018-10-23 15:20:15,72.79,-56.15,13.78,13.78,0,100,11.21
Leh,IN,2018-10-23 15:20:16,34.16,77.58,6.4,6.4,56,86,1.48
Lewiston,US,2018-10-23 14:56:00,46.42,-117.02,48.2,42.8,1,75,3.36
Karatau,KZ,2018-10-23 15:20:16,43.18,70.46,40.73,40.73,0,58,4.83
Lata,IN,2018-10-23 15:20:17,30.78,78.62,38.44,38.44,8,86,2.15
Yellowknife,CA,2018-10-23 15:00:00,62.45,-114.38,23.0,23.0,20,92,6.93
Butaritari,KI,2018-10-23 15:20:18,3.07,172.79,84.79,84.79,32,100,9.08
Vila Velha,BR,2018-10-23 15:00:00,-3.71,-38.6,89.6,89.6,20,55,23.04
Bontang,ID,2018-10-23 15:20:19,0.12,117.47,81.55,81.55,0,100,5.39
Yulara,AU,2018-10-23 15:00:00,-25.24,130.99,77.0,77.0,0,26,13.87
Atuona,PF,2018-10-23 15:20:20,-9.8,-139.03,81.05,81.05,92,97,16.24
Rumonge,BI,2018-10-23 15:20:20,-3.97,29.44,84.61,84.61,92,66,5.95
Puerto Ayora,EC,2018-10-23 14:00:00,-0.74,-90.35,75.2,75.2,40,64,16.11
Ekibastuz,KZ,2018-10-23 15:16:19,51.72,75.32,32.9,32.9,48,56,11.43
Portland,US,2018-10-23 15:02:00,45.52,-122.67,48.2,42.8,90,93,3.04
Kahului,US,2018-10-23 14:56:00,20.89,-156.47,75.2,69.8,1,83,6.93
Pontianak,ID,2018-10-23 15:20:22,-0.02,109.34,80.38,80.38,80,94,4.61
San Andres,PH,2018-10-23 15:20:23,13.32,122.68,81.73,81.73,80,100,14.12
Vilhena,BR,2018-10-23 14:00:00,-12.74,-60.15,80.6,80.6,75,65,9.17
Quelimane,MZ,2018-10-23 14:00:00,-17.88,36.89,77.0,77.0,75,61,10.29
Beloha,MG,2018-10-23 15:20:24,-25.17,45.06,69.94,69.94,0,49,13.78
Tabas,IR,2018-10-23 14:00:00,33.6,56.92,80.6,80.6,20,24,4.7
Yazman,SY,2018-10-23 15:20:25,36.74,38.46,63.91,63.91,100,93,8.52
Isangel,VU,2018-10-23 15:20:25,-19.55,169.27,74.66,74.66,92,100,19.48
Maningrida,AU,2018-10-23 15:20:25,-12.05,134.23,82.76,82.76,0,85,7.96
Salalah,OM,2018-10-23 13:50:00,17.01,54.1,82.4,82.4,0,69,5.82
Cherskiy,RU,2018-10-23 15:15:49,68.75,161.3,8.38,8.38,88,88,3.71
Dakar,SN,2018-10-23 14:00:00,14.69,-17.45,77.0,77.0,44,88,6.93
Kavieng,PG,2018-10-23 15:20:30,-2.57,150.8,77.14,77.14,88,100,6.96
Arraial do Cabo,BR,2018-10-23 15:00:00,-22.97,-42.02,86.0,84.2,0,51,11.41
Khilok,RU,2018-10-23 15:20:30,51.36,110.46,21.56,21.56,20,74,2.37
Corbelia,BR,2018-10-23 15:20:31,-24.8,-53.31,86.5,86.5,76,66,7.18
Oussouye,SN,2018-10-23 15:00:00,12.49,-16.54,96.8,93.2,8,56,4.7
Ferrol,ES,2018-10-23 15:00:00,43.48,-8.23,71.6,69.8,0,53,10.29
Pisco,PE,2018-10-23 14:00:00,-13.71,-76.2,66.2,66.2,75,82,8.05
Port-Gentil,GA,2018-10-23 14:00:00,-0.72,8.78,86.0,86.0,40,74,16.11
Dikson,RU,2018-10-23 15:20:34,73.51,80.55,26.02,26.02,0,100,19.37
Faya,SA,2018-10-23 14:00:00,18.39,42.45,73.4,69.8,40,77,11.41
Faanui,PF,2018-10-23 15:20:34,-16.48,-151.75,80.96,80.96,92,98,10.31
Provideniya,RU,2018-10-23 15:20:35,64.42,-173.23,36.19,36.19,68,100,14.0
Barrow,AR,2018-10-23 15:20:35,-38.31,-60.23,54.91,54.91,8,75,7.74
Pevek,RU,2018-10-23 15:20:36,69.7,170.27,20.62,20.62,80,100,8.19
Mehamn,NO,2018-10-23 14:50:00,71.03,27.85,41.0,37.4,75,86,10.29
Alice Springs,AU,2018-10-23 15:00:00,-23.7,133.88,73.4,73.4,0,20,8.05
Wilmington Island,US,2018-10-23 14:56:00,32.0,-80.97,69.8,66.2,20,82,5.82
Calceta,EC,2018-10-23 14:00:00,-0.85,-80.16,73.4,73.4,90,88,11.41
Talnakh,RU,2018-10-23 15:20:41,69.49,88.39,26.06,26.06,36,77,12.44
Tiksi,RU,2018-10-23 15:20:42,71.64,128.87,11.8,11.8,12,75,16.8
Agboville,CI,2018-10-23 15:20:42,5.93,-4.21,87.49,87.49,32,78,8.3
Umm Lajj,SA,2018-10-23 15:16:50,25.02,37.27,84.25,84.25,76,77,15.23
Bathsheba,BB,2018-10-23 14:00:00,13.22,-59.52,86.0,86.0,40,70,13.87
Orlik,RU,2018-10-23 15:20:43,52.51,99.83,7.16,7.16,48,79,1.92
Oksfjord,NO,2018-10-23 14:50:00,70.24,22.35,41.0,35.6,75,65,4.7
Valdivia,CL,2018-10-23 14:00:00,-39.81,-73.25,53.6,53.6,0,71,3.36
Saint George,GR,2018-10-23 14:50:00,39.45,22.34,59.0,59.0,90,93,10.29
Mastic Beach,US,2018-10-23 14:56:00,40.77,-72.85,60.8,57.2,75,59,11.41
Tucurui,BR,2018-10-23 15:20:45,-3.77,-49.67,88.3,88.3,32,70,3.15
Tecoanapa,MX,2018-10-23 14:47:00,16.99,-99.26,80.6,80.6,75,78,2.24
Kang,BW,2018-10-23 15:20:46,-23.67,22.79,71.33,71.33,92,29,13.22
Masterton,NZ,2018-10-23 15:20:47,-40.95,175.66,44.51,44.51,36,96,2.82
Raudeberg,NO,2018-10-23 14:50:00,61.99,5.14,44.6,37.4,40,65,25.28
Chernyshevskiy,RU,2018-10-23 15:20:48,63.01,112.47,27.55,27.55,88,90,3.94
Ponta do Sol,BR,2018-10-23 15:20:48,-20.63,-46.0,81.64,81.64,8,61,7.96
Oranjemund,ZA,2018-10-23 15:20:48,-28.55,16.43,64.27,64.27,48,82,5.95
Foca,TR,2018-10-23 14:50:00,38.67,26.76,68.0,68.0,75,68,3.15
Pareora,NZ,2018-10-23 15:20:49,-44.49,171.21,50.5,50.5,0,99,2.59
Hirara,JP,2018-10-23 15:20:50,24.8,125.28,77.77,77.77,0,100,10.42
Lachi,PK,2018-10-23 15:20:50,33.38,71.34,57.11,57.11,0,86,1.14
Tasiilaq,GL,2018-10-23 14:50:00,65.61,-37.64,28.4,28.4,75,58,5.82
Srednekolymsk,RU,2018-10-23 15:20:51,67.46,153.71,7.3,7.3,68,77,4.61
Nindiri,NI,2018-10-23 14:00:00,12.0,-86.12,82.4,82.4,20,74,4.7
Kavaratti,IN,2018-10-23 15:20:52,10.57,72.64,85.73,85.73,8,100,8.19
Cap Malheureux,MU,2018-10-23 14:00:00,-19.98,57.61,75.2,75.2,75,57,12.75
Constitucion,MX,2018-10-23 14:50:00,23.99,-104.67,57.2,57.2,90,100,3.36
Airai,TL,2018-10-23 15:20:54,-8.93,125.41,68.05,68.05,24,84,0.81
Abha,SA,2018-10-23 14:00:00,18.22,42.5,73.4,69.8,40,77,11.41
Victoria,BN,2018-10-23 15:00:00,5.28,115.24,78.8,77.0,90,88,2.24
Hithadhoo,MV,2018-10-23 15:20:55,-0.6,73.08,83.89,83.89,68,100,7.63
Timra,SE,2018-10-23 14:50:00,62.49,17.33,41.0,35.6,40,93,5.82
Batemans Bay,AU,2018-10-23 15:20:56,-35.71,150.18,57.38,57.38,0,96,9.19
Broome,GB,2018-10-23 14:56:00,52.47,1.45,60.8,59.0,0,67,19.46
Salinas,US,2018-10-23 15:09:00,36.67,-121.66,57.2,51.8,90,93,3.71
Port Elizabeth,US,2018-10-23 14:56:00,39.31,-74.98,62.6,57.2,40,55,10.09
Zahesi,GE,2018-10-23 14:30:00,41.83,44.76,66.2,66.2,40,55,3.36
Biltine,TD,2018-10-23 15:20:59,14.53,20.93,98.78,98.78,8,14,5.5
Ishigaki,JP,2018-10-23 15:20:59,24.34,124.16,77.86,77.86,48,100,10.87
Sisimiut,GL,2018-10-23 15:21:00,66.94,-53.67,-1.3,-1.3,0,100,2.48
Mitu,IR,2018-10-23 15:21:00,36.2,46.09,53.56,53.56,8,58,3.94
Bambous Virieux,MU,2018-10-23 14:00:00,-20.34,57.76,75.2,75.2,75,57,12.75
Texarkana,US,2018-10-23 14:53:00,33.44,-94.04,53.6,53.6,1,81,4.7
Rio Gallegos,AR,2018-10-23 14:00:00,-51.62,-69.22,51.8,51.8,20,53,6.93
Lac du Bonnet,CA,2018-10-23 15:21:01,50.25,-96.06,27.91,27.91,0,100,3.49
Kirakira,SB,2018-10-23 15:21:02,-10.46,161.92,82.85,82.85,8,100,5.73
Manaure,CO,2018-10-23 14:00:00,11.78,-72.45,84.2,84.2,40,74,5.82
Hobart,AU,2018-10-23 15:00:00,-42.88,147.33,44.6,44.6,0,70,9.17
Tabou,CI,2018-10-23 15:21:03,4.42,-7.36,79.21,79.21,76,100,9.42
Bonthe,SL,2018-10-23 15:21:03,7.53,-12.5,86.41,86.41,64,74,4.38
Lexington,US,2018-10-23 14:30:00,38.05,-84.5,53.6,50.0,1,62,4.7
General Roca,AR,2018-10-23 14:20:00,-39.03,-67.58,48.2,48.2,90,93,8.05
Whitianga,NZ,2018-10-23 15:21:04,-36.83,175.7,59.23,59.23,36,100,8.97
Hun,BE,2018-10-23 14:50:00,50.34,4.87,57.2,55.4,0,54,10.29
Sambava,MG,2018-10-23 15:17:46,-14.27,50.17,76.33,76.33,92,100,25.75
Leningradskiy,RU,2018-10-23 15:21:06,69.38,178.42,22.96,22.96,88,100,5.84
Chokurdakh,RU,2018-10-23 15:21:06,70.62,147.9,8.11,8.11,32,75,8.41
Chinsali,ZM,2018-10-23 15:21:07,-10.55,32.07,76.87,76.87,0,35,14.45
Suwalki,PL,2018-10-23 15:21:07,54.11,22.93,43.88,43.88,92,95,27.76
Great Yarmouth,GB,2018-10-23 14:50:00,52.61,1.73,60.8,60.8,0,67,19.46
Cabo Rojo,PR,2018-10-23 14:50:00,18.09,-67.15,84.2,84.2,1,100,12.75
Rincon,US,2018-10-23 14:56:00,32.3,-81.24,69.8,64.4,75,82,6.93
Launceston,AU,2018-10-23 15:00:00,-41.43,147.14,41.0,41.0,0,75,9.17
Ancud,CL,2018-10-23 15:21:09,-41.87,-73.83,61.12,61.12,44,68,3.27
Grindavik,IS,2018-10-23 14:30:00,63.84,-22.43,37.4,35.6,90,93,5.82
Thinadhoo,MV,2018-10-23 15:18:56,0.53,72.93,83.62,83.62,76,100,11.99
Ravar,IR,2018-10-23 15:21:10,31.27,56.81,58.42,58.42,0,75,2.37
Montorio al Vomano,IT,2018-10-23 14:50:00,42.58,13.64,68.0,66.2,0,49,3.36
Athens,US,2018-10-23 14:58:00,34.8,-86.97,55.4,51.8,1,76,4.61
Tuchkovo,RU,2018-10-23 14:30:00,55.6,36.47,41.0,41.0,75,86,4.47
Nuuk,GL,2018-10-23 14:50:00,64.17,-51.74,21.2,21.2,5,67,10.29
Charleston,US,2018-10-23 14:54:00,38.35,-81.63,55.4,55.4,1,58,9.17
Kijini,TZ,2018-10-23 15:00:00,-5.85,39.32,80.6,80.6,20,61,20.8
Northam,GB,2018-10-23 15:20:00,51.04,-4.21,57.2,42.8,20,93,13.87
Vao,EE,2018-10-23 15:21:14,59.1,26.19,41.36,41.36,88,91,11.43
Margate,AU,2018-10-23 15:00:00,-43.03,147.26,44.6,44.6,24,70,9.17
Namatanai,PG,2018-10-23 15:21:15,-3.66,152.44,78.8,78.8,80,100,4.16
Ambilobe,MG,2018-10-23 15:21:15,-13.19,49.05,80.47,80.47,88,51,18.25
Saint-Augustin,FR,2018-10-23 15:00:00,44.83,-0.61,69.8,66.2,0,48,11.41
Itarema,BR,2018-10-23 15:21:16,-2.92,-39.92,91.4,91.4,0,56,16.91
Ribeira Grande,PT,2018-10-23 15:00:00,38.52,-28.7,66.2,66.2,40,88,11.41
Ilulissat,GL,2018-10-23 14:50:00,69.22,-51.1,10.4,10.4,20,35,4.7
Colwyn Bay,GB,2018-10-23 14:50:00,53.29,-3.71,55.4,53.6,75,76,14.99
Coihaique,CL,2018-10-23 14:00:00,-45.58,-72.07,53.6,50.0,20,71,6.93
Alofi,NU,2018-10-23 15:00:00,-19.06,-169.92,71.6,71.6,75,94,11.41
Touros,BR,2018-10-23 15:21:18,-5.2,-35.46,79.93,79.93,32,85,16.58
Black River,JM,2018-10-23 15:00:00,18.03,-77.85,87.8,87.8,20,62,16.11
Platteville,US,2018-10-23 14:56:00,42.73,-90.48,46.4,41.0,1,79,8.05
Severo-Kurilsk,RU,2018-10-23 15:21:20,50.68,156.12,41.9,41.9,64,93,8.75
Guymon,US,2018-10-23 14:56:00,36.68,-101.48,53.6,44.6,20,87,8.05
Ambah,IN,2018-10-23 15:21:21,26.71,78.23,70.43,70.43,0,30,4.94
Antofagasta,CL,2018-10-23 14:00:00,-23.65,-70.4,62.6,62.6,20,63,8.05
Mount Gambier,AU,2018-10-23 15:21:21,-37.83,140.78,49.01,49.01,48,62,3.6
Codrington,AU,2018-10-23 15:21:22,-28.95,153.24,60.94,60.94,0,95,2.59
Utete,TZ,2018-10-23 15:21:22,-7.99,38.76,84.79,84.79,20,37,8.19
Georgetown,GY,2018-10-23 14:00:00,6.8,-58.16,87.8,87.8,75,70,6.93
Bemidji,US,2018-10-23 14:46:00,47.48,-94.89,32.0,30.2,90,93,8.19
Tanout,NE,2018-10-23 15:21:24,14.97,8.88,103.42,103.42,0,8,11.77
Nkhotakota,MW,2018-10-23 15:21:24,-12.93,34.3,73.36,73.36,8,70,10.2
Kuryk,KZ,2018-10-23 15:21:25,43.18,51.68,58.87,58.87,24,86,6.17
Katobu,ID,2018-10-23 15:21:25,-4.94,122.53,81.28,81.28,0,96,3.94
East London,ZA,2018-10-23 15:00:00,-33.02,27.91,78.8,78.8,0,54,9.17
Englewood,US,2018-10-23 14:58:00,39.65,-104.99,48.2,44.6,75,75,3.36
Guanica,PR,2018-10-23 14:50:00,17.97,-66.91,84.2,84.2,1,100,12.75
Nikolskoye,RU,2018-10-23 14:30:00,59.7,30.79,41.0,41.0,75,80,8.95
Calhoun,US,2018-10-23 14:57:00,34.5,-84.95,57.2,48.2,1,93,3.15
Namibe,AO,2018-10-23 15:21:28,-15.19,12.15,77.14,77.14,12,95,8.75
Inta,RU,2018-10-23 15:21:29,66.04,60.13,35.6,35.6,92,97,8.19
Strzelce Opolskie,PL,2018-10-23 15:00:00,50.52,18.3,42.8,42.8,90,87,20.8
Aklavik,CA,2018-10-23 15:00:00,68.22,-135.01,19.4,14.0,90,85,2.24
Havoysund,NO,2018-10-23 14:50:00,71.0,24.66,41.0,41.0,75,100,9.17
Manokwari,ID,2018-10-23 15:21:32,-0.87,134.08,81.19,81.19,24,100,2.15
Hasaki,JP,2018-10-23 14:50:00,35.73,140.83,57.2,57.2,75,93,5.82
Hannibal,US,2018-10-23 15:15:00,39.71,-91.36,50.0,48.2,1,53,6.93
Pimentel,BR,2018-10-23 15:21:33,-3.7,-45.5,84.43,84.43,20,86,1.36
Jimma,ET,2018-10-23 15:21:34,7.67,36.84,66.43,66.43,24,70,2.04
Kruisfontein,ZA,2018-10-23 15:21:34,-34.0,24.73,79.25,79.25,0,57,4.61
Oktyabrskoye,RU,2018-10-23 15:21:35,56.73,85.44,28.0,28.0,56,69,8.52
Khatanga,RU,2018-10-23 15:21:35,71.98,102.47,15.04,15.04,64,87,6.96
Victoriaville,CA,2018-10-23 15:21:35,46.06,-71.95,40.46,40.46,36,65,6.96
Mayo,CA,2018-10-23 15:07:00,63.59,-135.9,37.4,37.4,90,95,9.17
Tocopilla,CL,2018-10-23 15:21:36,-22.09,-70.2,62.11,62.11,24,99,4.94
Loma Bonita,MX,2018-10-23 15:21:37,18.11,-95.88,73.72,73.72,92,98,5.06
Nuevo Progreso,US,2018-10-23 14:55:00,26.05,-97.95,60.8,57.2,90,82,11.41
Chateaubelair,VC,2018-10-23 14:00:00,13.28,-61.25,84.2,84.2,40,79,17.22
Kilindoni,TZ,2018-10-23 15:21:38,-7.91,39.67,80.56,80.56,32,95,21.72
Mangochi,MW,2018-10-23 15:21:42,-14.48,35.26,74.53,74.53,0,50,14.0
Alta Floresta,BR,2018-10-23 15:21:43,-9.87,-56.08,92.17,92.17,0,59,2.93
Zanjan,IR,2018-10-23 14:00:00,36.67,48.48,60.8,60.8,20,48,3.27
Shache,CN,2018-10-23 15:21:44,38.42,77.24,44.38,44.38,0,49,7.4
Itaituba,BR,2018-10-23 15:17:32,-4.26,-55.99,94.15,94.15,0,51,4.16
Lulea,SE,2018-10-23 14:50:00,65.58,22.15,32.0,32.0,0,100,6.17
Tautira,PF,2018-10-23 15:00:00,-17.73,-149.15,75.2,75.2,90,78,3.36
Zyryanka,RU,2018-10-23 15:21:45,65.73,150.89,0.37,0.37,44,75,2.93
Coahuayana,MX,2018-10-23 15:21:45,18.62,-100.35,70.88,70.88,0,87,3.15
Gorontalo,ID,2018-10-23 15:21:46,0.54,123.06,72.68,72.68,24,91,2.15
Bakaly,RU,2018-10-23 15:17:58,55.18,53.8,44.47,44.47,88,67,11.43
Muana,BR,2018-10-23 15:21:47,-1.53,-49.22,89.2,89.2,8,68,7.74
Osypenko,UA,2018-10-23 14:30:00,48.04,34.39,51.8,51.8,0,53,8.95
Mahon,IE,2018-10-23 15:00:00,51.89,-8.4,59.0,59.0,75,62,10.29
Te Anau,NZ,2018-10-23 15:21:48,-45.41,167.72,53.92,53.92,68,93,8.19
North Bend,US,2018-10-23 14:56:00,43.41,-124.22,51.8,48.2,1,93,6.93
Maralal,KE,2018-10-23 15:21:49,1.1,36.7,67.51,67.51,8,81,6.4
Alberdi,AR,2018-10-23 14:00:00,-26.19,-58.14,68.0,68.0,90,100,5.82
Qaqortoq,GL,2018-10-23 13:50:00,60.72,-46.03,33.8,33.8,75,97,1.12
Sri Aman,MY,2018-10-23 15:00:00,1.24,111.46,78.8,78.8,36,88,2.24
Altay,CN,2018-10-23 15:21:51,47.83,88.13,2.93,2.93,0,75,2.48
Nome,US,2018-10-23 14:55:00,30.04,-94.42,60.8,53.6,90,87,10.29
Ouro Preto do Oeste,BR,2018-10-23 15:19:10,-10.75,-62.22,83.21,83.21,92,79,2.15
Grand-Santi,GF,2018-10-23 15:21:52,4.27,-54.38,90.19,90.19,12,56,3.6
Houma,CN,2018-10-23 15:21:52,35.63,111.36,38.62,38.62,44,85,2.48
Guerrero Negro,MX,2018-10-23 15:21:53,27.97,-114.04,64.45,64.45,80,98,7.52
Stephenville,US,2018-10-23 14:55:00,32.22,-98.2,62.6,57.2,75,77,4.61
Nyurba,RU,2018-10-23 15:21:54,63.29,118.35,26.06,26.06,80,87,3.04
Riviere-au-Renard,CA,2018-10-23 15:00:00,49.0,-64.4,37.4,37.4,90,59,3.36
College,US,2018-10-23 14:58:00,64.86,-147.8,35.6,30.2,1,64,9.17
Chapais,CA,2018-10-23 15:00:00,49.78,-74.86,24.8,24.8,90,79,8.05
Sosnovo-Ozerskoye,RU,2018-10-23 15:21:56,52.53,111.54,19.13,19.13,36,73,3.38
Bastia,IT,2018-10-23 14:55:00,44.6,8.98,73.4,64.4,0,35,3.36
Pacific Grove,US,2018-10-23 15:09:00,36.62,-121.92,57.2,51.8,90,71,3.71
Birin,SY,2018-10-23 15:21:57,35.01,36.67,72.28,72.28,56,56,5.28
Vilyuysk,RU,2018-10-23 15:21:58,63.75,121.63,20.44,20.44,64,90,4.5
Lavrentiya,RU,2018-10-23 15:21:58,65.58,-170.99,37.54,37.54,76,100,21.94
Port Lincoln,AU,2018-10-23 15:21:59,-34.72,135.86,51.53,51.53,24,100,8.52
Oktyabrskiy,RU,2018-10-23 14:30:00,55.61,37.97,41.0,39.2,90,93,6.71
Katsuura,JP,2018-10-23 14:15:00,33.93,134.5,62.6,62.6,75,100,5.82
Mumford,GH,2018-10-23 15:22:00,5.26,-0.76,84.61,84.61,36,80,11.32
Santa Isabel do Rio Negro,BR,2018-10-23 15:22:01,-0.41,-65.02,85.87,85.87,48,82,3.6
Bonavista,CA,2018-10-23 15:22:01,48.65,-53.11,43.88,43.88,32,96,17.69
Palmer,US,2018-10-23 14:56:00,61.6,-149.11,42.8,35.6,90,69,3.36
Buzmeyin,TM,2018-10-23 14:00:00,38.05,58.21,73.4,73.4,75,25,4.7
Condado,BR,2018-10-23 15:00:00,-7.59,-35.1,86.0,84.2,40,62,13.87
Juba,EE,2018-10-23 14:50:00,57.82,26.93,41.0,41.0,90,93,11.41
Maracaibo,CO,2018-10-23 14:00:00,3.41,-75.78,75.2,75.2,75,78,4.7
Luderitz,NA,2018-10-23 14:00:00,-26.65,15.16,78.8,78.8,12,50,12.75
Rorvik,NO,2018-10-23 14:50:00,64.86,11.24,37.4,37.4,75,100,5.82
Hamilton,CA,2018-10-23 15:04:00,43.26,-79.87,48.2,44.6,75,76,13.87
Bandarban,BD,2018-10-23 15:00:00,22.2,92.22,78.8,78.8,0,83,4.7
Teguldet,RU,2018-10-23 15:22:06,57.31,88.17,29.21,29.21,88,71,7.18
Los Llanos de Aridane,ES,2018-10-23 15:00:00,28.66,-17.92,75.2,75.2,20,73,14.99
Beringovskiy,RU,2018-10-23 15:22:09,63.05,179.32,26.65,26.65,44,100,17.47
Necochea,AR,2018-10-23 15:22:09,-38.55,-58.74,52.84,52.84,0,88,8.41
Sabha,LY,2018-10-23 15:22:10,27.03,14.43,87.85,87.85,0,20,15.9
Tala,MX,2018-10-23 14:50:00,20.65,-103.7,68.0,68.0,75,72,11.41
Yanam,IN,2018-10-23 15:22:11,16.73,82.22,80.74,80.74,12,74,6.4
Keflavik,IS,2018-10-23 14:30:00,64.0,-22.56,37.4,35.6,90,93,5.82
Nerchinskiy Zavod,RU,2018-10-23 15:22:12,51.31,119.61,21.2,21.2,0,76,2.71
Vanimo,PG,2018-10-23 15:22:12,-2.67,141.3,78.98,78.98,56,100,13.33
Madras,US,2018-10-23 14:56:00,44.63,-121.13,37.4,35.6,1,69,8.05
Sioux Lookout,CA,2018-10-23 15:00:00,50.1,-91.92,30.2,30.2,90,80,8.05
Teya,MX,2018-10-23 14:45:00,21.05,-89.07,80.6,80.6,40,78,5.82
Gravelbourg,CA,2018-10-23 15:22:14,49.88,-106.56,34.7,34.7,0,58,11.43
Boueni,YT,2018-10-23 14:30:00,-12.9,45.08,78.8,78.8,0,74,18.34
Colomiers,FR,2018-10-23 15:00:00,43.61,1.33,66.2,66.2,0,52,10.29
Campbell River,CA,2018-10-23 15:09:00,50.02,-125.24,42.8,35.6,90,100,2.24
Dafeng,CN,2018-10-23 15:22:16,33.2,120.46,53.51,53.51,36,85,4.72
Mahibadhoo,MV,2018-10-23 15:22:16,3.78,72.97,85.24,85.24,88,97,13.67
Luwuk,ID,2018-10-23 15:22:16,-0.95,122.79,77.45,77.45,0,90,3.04
Requena,ES,2018-10-23 15:00:00,39.49,-1.1,71.6,71.6,20,68,5.82
Tura,IN,2018-10-23 15:22:18,25.52,90.21,69.98,69.98,0,89,2.37
Angoche,MZ,2018-10-23 15:22:19,-16.23,39.91,78.71,78.71,0,99,21.72
Lichinga,MZ,2018-10-23 14:00:00,-13.3,35.25,69.8,69.8,20,68,16.11
Korhogo,CI,2018-10-23 15:22:20,9.46,-5.63,96.49,96.49,20,38,9.31
Viedma,AR,2018-10-23 15:22:21,-40.81,-62.99,55.4,55.4,12,75,4.61
Narsaq,GL,2018-10-23 13:50:00,60.91,-46.05,33.8,33.8,75,94,1.12
Shimoda,JP,2018-10-23 15:22:22,34.7,138.93,66.43,66.43,48,100,14.67
Aras,YE,2018-10-23 15:22:22,14.28,44.38,57.25,57.25,0,65,2.59
Fremont,US,2018-10-23 14:56:00,37.55,-121.99,57.2,53.6,90,82,3.36
Mecca,SA,2018-10-23 15:21:55,21.43,39.83,86.18,86.18,76,59,1.92
Sakaraha,MG,2018-10-23 15:22:24,-22.91,44.53,73.18,73.18,8,33,10.2
Meulaboh,ID,2018-10-23 15:22:25,4.14,96.13,80.02,80.02,64,100,3.27
Renqiu,CN,2018-10-23 15:22:25,38.71,116.1,47.8,47.8,0,41,8.52
Paralimni,GR,2018-10-23 15:22:26,40.99,23.67,63.46,63.46,8,52,2.71
Coquimbo,CL,2018-10-23 14:00:00,-29.95,-71.34,57.2,57.2,90,76,3.36
Otradnoye,RU,2018-10-23 14:30:00,59.77,30.8,41.0,41.0,75,80,8.95
Skorodnoye,RU,2018-10-23 14:30:00,51.07,37.24,48.2,48.2,75,57,13.42
Biak,ID,2018-10-23 15:22:28,-0.91,122.88,77.45,77.45,0,90,3.04
Sinnamary,GF,2018-10-23 15:22:28,5.38,-52.96,84.34,84.34,0,86,11.77
Zhigansk,RU,2018-10-23 15:22:29,66.77,123.37,11.66,11.66,80,76,3.15
Kawerau,NZ,2018-10-23 15:22:29,-38.09,176.7,57.38,57.38,76,94,4.27
Prince Rupert,CA,2018-10-23 15:00:00,54.32,-130.32,59.0,59.0,90,44,16.11
Steinbach,CA,2018-10-23 15:00:00,49.53,-96.69,30.2,30.2,20,80,2.24
Pangnirtung,CA,2018-10-23 15:00:00,66.15,-65.72,14.0,14.0,75,72,6.93
Taseyevo,RU,2018-10-23 15:22:32,57.22,94.9,30.88,30.88,76,77,7.29
Olinda,EC,2018-10-23 14:00:00,-2.03,-79.75,77.0,77.0,90,69,4.7
Peterlee,GB,2018-10-23 14:50:00,54.76,-1.33,59.0,55.4,20,71,24.16
Atambua,ID,2018-10-23 15:22:34,-9.11,124.89,77.23,77.23,8,100,0.92
Alghero,IT,2018-10-23 14:50:00,40.56,8.32,71.6,71.6,0,46,8.05
Ozernovskiy,RU,2018-10-23 15:22:34,51.5,156.52,40.73,40.73,92,96,9.86
Turukhansk,RU,2018-10-23 15:22:35,65.8,87.96,29.89,29.89,88,92,10.42
Harper,US,2018-10-23 14:55:00,30.3,-99.24,57.2,53.6,90,71,4.7
Gat,SN,2018-10-23 15:00:00,14.69,-16.54,102.2,102.2,36,37,11.54
Klaksvik,FO,2018-10-23 14:50:00,62.23,-6.59,44.6,44.6,64,81,9.17
Vikramasingapuram,IN,2018-10-23 15:00:00,8.71,77.39,78.8,78.8,75,88,3.36
Rantepao,ID,2018-10-23 15:22:37,-2.97,119.9,64.72,64.72,20,96,1.92
Quatre Cocos,MU,2018-10-23 15:00:00,-20.21,57.76,73.4,73.4,75,60,10.29
Plettenberg Bay,ZA,2018-10-23 15:22:39,-34.05,23.37,74.71,74.71,0,65,7.4
Muscat,OM,2018-10-23 13:50:00,23.6,58.55,91.4,91.4,0,38,2.24
Avera,US,2018-10-23 14:55:00,33.19,-82.53,64.4,60.8,1,72,3.94
Saint-Pierre,FR,2018-10-23 15:00:00,48.95,4.24,59.0,59.0,20,54,14.99
Sisophon,KH,2018-10-23 15:22:41,13.59,102.97,76.42,76.42,12,86,3.71
Bandarbeyla,SO,2018-10-23 15:18:51,9.49,50.81,78.76,78.76,92,97,9.19
Lorengau,PG,2018-10-23 15:22:41,-2.02,147.27,81.05,81.05,64,100,12.21
Klyuchi,RU,2018-10-23 15:22:42,52.25,79.17,27.23,27.23,44,75,9.19
Sao Filipe,CV,2018-10-23 15:22:42,14.9,-24.5,82.45,82.45,36,87,12.44
Minab,IR,2018-10-23 14:30:00,27.15,57.07,86.0,86.0,75,62,11.41
Geraldton,CA,2018-10-23 15:00:00,49.72,-86.95,32.0,32.0,90,83,9.17
Ballyhaunis,IE,2018-10-23 15:00:00,53.76,-8.77,53.6,53.6,75,81,16.11
Palanpur,IN,2018-10-23 15:22:44,24.17,72.44,76.96,76.96,0,39,2.82
Soverato,IT,2018-10-23 14:50:00,38.69,16.55,62.6,60.8,75,88,8.05
Estelle,US,2018-10-23 14:55:00,32.87,-97.01,60.8,57.2,75,67,3.36
Balad,ID,2018-10-23 15:22:45,-6.76,108.42,81.95,81.95,8,100,5.84
Svetlaya,RU,2018-10-23 15:22:45,46.54,138.33,50.23,50.23,76,100,5.73
Kudahuvadhoo,MV,2018-10-23 15:22:45,2.67,72.89,82.81,82.81,64,100,13.67
Praia da Vitoria,PT,2018-10-23 15:00:00,38.73,-27.07,68.0,68.0,75,82,18.92
Znamenskoye,RU,2018-10-23 15:22:46,57.13,73.82,34.25,34.25,92,90,13.67
New Plymouth,NZ,2018-10-23 15:22:47,-39.06,174.08,52.12,52.12,20,100,5.95
Ilovlya,RU,2018-10-23 14:30:00,49.31,43.98,53.6,53.6,75,87,17.9
Acajutla,SV,2018-10-23 13:50:00,13.59,-89.83,80.6,75.2,20,74,3.36
Fairbanks,US,2018-10-23 14:58:00,64.84,-147.72,35.6,30.2,1,64,9.17
Gizo,IL,2018-10-23 14:50:00,31.8,34.94,86.0,82.4,0,51,6.93
Port-Cartier,CA,2018-10-23 15:00:00,50.03,-66.88,35.6,35.6,75,59,9.31
Marawi,PH,2018-10-23 15:22:49,8.0,124.29,64.76,64.76,24,97,2.48
San Marcos,GT,2018-10-23 14:41:00,14.97,-91.79,82.4,82.4,5,74,2.24
Westport,IE,2018-10-23 15:00:00,53.8,-9.52,53.6,53.6,75,81,16.11
Bonoua,CI,2018-10-23 15:00:00,5.27,-3.6,86.0,86.0,20,66,10.29
Antsohihy,MG,2018-10-23 15:22:51,-14.88,47.99,83.98,83.98,0,43,18.37
Boulsa,BF,2018-10-23 15:22:52,12.66,-0.57,99.41,99.41,8,34,7.63
Gaozhou,CN,2018-10-23 15:22:52,21.91,110.85,68.36,68.36,32,99,2.37
Rodrigues Alves,BR,2018-10-23 14:00:00,-7.74,-72.65,82.4,82.4,75,78,3.71
Hofn,IS,2018-10-23 15:22:53,64.25,-15.21,38.98,38.98,88,100,6.51
Lompoc,US,2018-10-23 14:56:00,34.64,-120.46,57.2,53.6,90,87,8.3
Marsh Harbour,BS,2018-10-23 15:22:54,26.54,-77.06,81.01,81.01,8,100,14.67
Clyde River,CA,2018-10-23 14:43:00,70.47,-68.59,14.0,14.0,90,92,27.51
Kargil,PK,2018-10-23 15:22:55,34.56,76.13,-6.3,-6.3,12,63,1.7
Tomigusuku,JP,2018-10-23 14:56:00,26.18,127.67,75.2,68.0,20,94,7.52
Kincardine,GB,2018-10-23 14:50:00,56.07,-3.72,60.8,55.4,75,82,20.8
Birao,CF,2018-10-23 15:22:56,10.3,22.78,77.81,77.81,12,75,4.61
Havre-Saint-Pierre,CA,2018-10-23 15:00:00,50.23,-63.6,39.2,39.2,20,51,5.82
Carahue,CL,2018-10-23 15:22:57,-38.71,-73.16,59.05,59.05,88,74,3.71
Souillac,FR,2018-10-23 15:00:00,45.6,-0.6,64.4,62.6,0,39,12.75
Wagar,US,2018-10-23 15:22:58,31.44,-87.99,66.7,66.7,92,61,3.38
Port Macquarie,AU,2018-10-23 15:00:00,-31.43,152.91,64.4,64.4,0,100,2.24
Palatka,US,2018-10-23 14:56:00,29.65,-81.64,75.2,69.8,1,83,4.7
Phangnga,TH,2018-10-23 15:00:00,8.45,98.53,78.8,77.0,40,88,2.24
Verkhoyansk,RU,2018-10-23 15:23:00,67.55,133.39,4.69,4.69,68,92,2.59
Ceres,AR,2018-10-23 15:23:00,-29.88,-61.95,65.48,65.48,92,100,13.22
Aden,YE,2018-10-23 15:23:01,12.79,45.03,81.37,81.37,0,99,10.2
Washington DC.,US,2018-10-23 14:58:00,38.9,-77.04,62.6,53.6,1,67,10.29
Raghogarh,IN,2018-10-23 15:23:02,24.45,77.19,75.43,75.43,48,35,7.52
Ballina,IE,2018-10-23 15:00:00,54.11,-9.15,53.6,53.6,75,81,16.11
Senanga,ZM,2018-10-23 15:23:03,-16.1,23.3,79.39,79.39,92,24,13.0
Bergama,TR,2018-10-23 14:50:00,39.12,27.18,68.0,64.4,75,64,13.87
Caravelas,BR,2018-10-23 15:23:04,-17.73,-39.27,75.16,75.16,0,100,7.85
Haines Junction,CA,2018-10-23 15:23:04,60.75,-137.51,30.79,30.79,92,100,2.15
Loreto,PY,2018-10-23 15:23:05,-23.27,-57.32,74.71,74.71,92,100,9.75
Hovd,NO,2018-10-23 14:50:00,63.83,10.7,41.0,37.4,75,86,12.75
Waipawa,NZ,2018-10-23 15:23:06,-39.94,176.59,43.48,43.48,24,93,2.48
Hailar,CN,2018-10-23 15:23:07,49.2,119.7,29.62,29.62,8,79,5.28
Saint-Georges,CA,2018-10-23 15:23:07,46.12,-70.67,35.6,35.6,12,65,3.49
Khasan,RU,2018-10-23 15:23:08,42.43,130.64,49.33,49.33,0,100,11.99
Cangzhou,CN,2018-10-23 15:23:08,38.3,116.85,50.68,50.68,0,34,11.21
Dali,CN,2018-10-23 15:23:09,25.6,100.24,48.56,48.56,12,100,1.81
Bam,IR,2018-10-23 15:23:09,29.11,58.36,63.1,63.1,80,70,3.38
Tazovskiy,RU,2018-10-23 15:23:10,67.47,78.7,16.43,16.43,64,86,16.69
Ziarat,PK,2018-10-23 15:23:10,30.38,67.73,43.66,43.66,0,43,4.38
Fereydun Kenar,IR,2018-10-23 14:00:00,36.69,52.52,69.8,69.8,20,77,4.7
Emerald,AU,2018-10-23 15:19:53,-23.53,148.16,72.01,72.01,0,65,9.64
Compostela,MX,2018-10-23 14:48:00,21.24,-104.9,68.0,68.0,90,100,8.05
Coatepec,MX,2018-10-23 15:23:11,19.45,-96.96,57.7,57.7,12,91,1.36
Novovarshavka,RU,2018-10-23 15:23:12,54.17,74.7,35.38,35.38,48,72,17.58
Jiangyin,CN,2018-10-23 15:23:12,31.91,120.26,57.34,57.34,44,90,7.07
Taonan,CN,2018-10-23 15:23:13,45.34,122.78,38.08,38.08,8,50,7.96
Savalou,BJ,2018-10-23 15:23:13,7.93,1.98,88.48,88.48,20,77,5.95
Shubarshi,KZ,2018-10-23 15:23:13,48.59,57.19,46.36,46.36,12,69,11.21
Barentu,ER,2018-10-23 15:23:14,15.11,37.59,80.92,80.92,0,35,5.5
Felipe Carrillo Puerto,MX,2018-10-23 15:23:14,19.58,-88.05,83.75,83.75,0,74,3.71
Burhar,IN,2018-10-23 15:23:14,23.21,81.54,70.7,70.7,0,58,6.06
Hunchun,CN,2018-10-23 15:23:15,42.86,130.36,43.88,43.88,0,82,6.62
Neiafu,TO,2018-10-23 15:00:00,-18.65,-173.98,73.4,73.4,75,94,11.41
Newark,US,2018-10-23 14:56:00,40.74,-74.17,57.2,51.8,40,62,9.17
Petropavlovskoye,RU,2018-10-23 14:00:00,46.79,142.5,37.4,37.4,88,100,6.73
Nekrasovka,RU,2018-10-23 14:30:00,48.35,135.23,46.4,46.4,20,70,4.47
Tanda,IN,2018-10-23 15:23:19,31.67,75.63,56.89,56.89,0,89,2.82
Lyuban,BY,2018-10-23 15:23:19,52.8,28.0,40.87,40.87,88,94,20.27
Douglas,US,2018-10-23 14:56:00,58.28,-134.39,48.2,46.4,90,93,11.32
Tulsipur,IN,2018-10-23 15:23:24,27.53,82.41,70.43,70.43,0,74,7.63
Cururupu,BR,2018-10-23 15:23:24,-1.82,-44.87,90.37,90.37,20,59,14.67
Praia,BR,2018-10-23 14:00:00,-20.25,-43.81,80.6,75.2,20,47,6.93
The Valley,AI,2018-10-23 15:00:00,18.22,-63.06,86.0,84.2,40,70,12.75
Ashland,US,2018-10-23 14:51:00,38.48,-82.64,55.4,55.4,1,54,8.05
Sotnikovo,RU,2018-10-23 14:30:00,51.88,107.48,32.0,32.0,20,74,1.81
Lumajang,ID,2018-10-23 15:23:26,-8.14,113.22,76.73,76.73,92,100,3.15
Bafoulabe,ML,2018-10-23 15:23:27,13.81,-10.83,94.73,94.73,8,44,3.04
Santo Antonio do Ica,BR,2018-10-23 15:23:27,-3.1,-67.94,82.81,82.81,80,89,3.15
Joshimath,IN,2018-10-23 15:23:28,30.57,79.57,14.23,14.23,48,90,0.36
Half Moon Bay,US,2018-10-23 14:56:00,37.46,-122.43,57.2,53.6,75,76,4.7
Ostrovnoy,RU,2018-10-23 15:23:29,68.05,39.51,30.56,30.56,80,95,7.96
Kamina,CD,2018-10-23 15:24:37,-8.74,25.0,84.11,84.11,0,42,11.43
Yumen,CN,2018-10-23 15:23:30,40.29,97.04,35.06,35.06,20,73,8.97
Qalyub,EG,2018-10-23 15:00:00,30.18,31.21,87.8,87.8,0,27,10.29
Santa Cruz do Capibaribe,BR,2018-10-23 15:23:31,-7.95,-36.21,87.85,87.85,0,45,14.0
Aswan,EG,2018-10-23 15:18:51,24.09,32.9,93.07,93.07,0,19,2.93
Luanda,AO,2018-10-23 14:00:00,-8.83,13.24,86.0,86.0,40,70,9.17
Chake Chake,TZ,2018-10-23 15:23:32,-5.25,39.77,78.98,78.98,76,95,26.53
Mount Isa,AU,2018-10-23 15:00:00,-20.73,139.49,68.0,68.0,0,22,4.38
Walvis Bay,NA,2018-10-23 14:00:00,-22.95,14.51,84.2,84.2,20,39,8.05
Ust-Nera,RU,2018-10-23 15:23:33,64.57,143.24,-6.07,-6.07,48,77,1.81
Byron Bay,AU,2018-10-23 15:00:00,-28.65,153.62,68.0,68.0,44,88,4.7
Gornopravdinsk,RU,2018-10-23 15:23:34,60.06,69.92,37.9,37.9,92,94,9.98
Egvekinot,RU,2018-10-23 15:23:34,66.32,-179.17,11.71,11.71,80,72,3.49
Calca,PE,2018-10-23 14:30:00,-13.32,-71.96,55.4,55.4,75,66,4.7
Goure,NE,2018-10-23 15:23:35,13.98,10.27,102.07,102.07,0,11,10.42
San Rafael,AR,2018-10-23 15:23:36,-34.61,-68.33,51.26,51.26,92,71,5.17
Lodja,CD,2018-10-23 15:23:37,-3.52,23.6,78.76,78.76,48,89,3.15
Lagoa,PT,2018-10-23 15:00:00,37.14,-8.45,73.4,73.4,20,78,11.41
Maumere,ID,2018-10-23 15:23:38,-8.63,122.22,80.38,80.38,8,100,8.08
